<?xml version='1.0' encoding='UTF-8'?>
<data>
    <row>
        <code>CEULN</code>
        <campus>Centre d'études universitaires du Liban-Nord</campus>
        <mapGeneral latitude="33.838768" longitude="35.833626" img="http://www.usj.edu.lb/logos/80/ceuln.jpg"> 
        </mapGeneral>
    </row>
    <row>
        <code>CEULS</code>
        <campus>Centre d'études universitaires du Liban-Sud</campus>
        <mapGeneral latitude="34.378012" longitude="35.758095" img="http://www.usj.edu.lb/logos/80/ceuls.jpg"> 
        </mapGeneral>
    </row>
    <row>
        <code>CEUZB</code>
        <campus>Centre d'études universitaires de Zahlé et de la Békaa</campus>
        <mapGeneral latitude="34.378012" longitude="35.758095" img="http://www.usj.edu.lb/logos/80/ceuzb.jpg"> 
        </mapGeneral>
    </row>
    <row>
        <code>CSH</code>
        <campus>Campus des sciences humaines</campus>
        <mapGeneral latitude="33.885237" longitude="35.50674" img="http://www.usj.edu.lb/logos/80/csh.jpg"> 
        </mapGeneral>
        
    </row>
    <row>
        <code>CSM</code>
        <campus>Campus des sciences médicales et infirmières</campus>
        <mapGeneral latitude="33.88424" longitude="35.527382" img="http://www.usj.edu.lb/logos/80/csm.jpg">
        </mapGeneral>
    </row>
    
    <row>
        <code>CSS</code>
        <campus>Campus des sciences sociales</campus>
        <mapGeneral latitude="33.846256" longitude="35.901952" img="http://www.usj.edu.lb/logos/80/css.jpg">
        </mapGeneral>    
    </row>
    <row>
        <code>CST</code>
        <campus>Campus des sciences et technologies</campus>
        <mapGeneral latitude="33.88424" longitude="35.533905" img="http://www.usj.edu.lb/logos/80/cst.jpg">
            <batiement name="Département d'éléctronique" latitude="33.865618" longitude="35.563600">
            </batiement>
            <batiement name="Faculté des sciences" latitude="33.865993" longitude="35.563484">
            </batiement>
            <batiement name="Direction" latitude="33.865315" longitude="35.564375">
            </batiement>
            <batiement name="Parking visiteur" latitude="33.865968" longitude="35.564423">            
            </batiement>
            <batiement name="Berytech" latitude="33.865186" longitude="35.562066">            
            </batiement>
            <batiement name="Entrée principale" latitude="33.864901" longitude="35.564488">            
            </batiement>
        </mapGeneral>
    </row>
</data>

